City_ID,City,Lat,Lng,Max Temp,Humidity,Cloudiness,Wind Speed,Country,Date
0,puerto ayora,-0.7393,-90.3518,27.53,95,76,1.34,EC,1708156794
1,chonchi,-42.6128,-73.8092,10.56,95,87,0.72,CL,1708156316
2,yuzhno-kurilsk,44.0306,145.8556,-3.68,67,100,1.55,RU,1708156268
3,albany,42.6001,-73.9662,-2.53,75,100,1.34,US,1708155988
4,talnakh,69.4865,88.3972,-30.65,88,90,2.43,RU,1708156207
5,lebu,-37.6167,-73.65,13.86,84,0,8.66,CL,1708156797
6,sergeyevka,53.88,67.4158,-20.1,94,30,2.92,KZ,1708156798
7,port-aux-francais,-49.35,70.2167,4.85,72,89,13.77,TF,1708156799
8,hirara,24.8,125.2833,22.15,68,75,5.14,JP,1708156799
9,yellowknife,62.456,-114.3525,-9.71,79,0,6.17,CA,1708156209
10,poltavka,54.3663,71.7632,-19.94,94,43,4.46,RU,1708156800
11,whitehorse,60.7161,-135.0538,-8.57,67,0,6.69,CA,1708156274
12,happy valley-goose bay,53.3168,-60.3315,-11.83,92,100,3.09,CA,1708156323
13,atafu village,-8.5421,-172.5159,28.48,78,100,4.91,TK,1708156210
14,lerwick,60.1545,-1.1494,5.2,75,100,4.88,GB,1708156646
15,iqaluit,63.7506,-68.5145,-31.84,67,0,5.14,CA,1708156207
16,old town,50.087,14.4202,10.56,96,100,2.57,CZ,1708156808
17,puerto natales,-51.7236,-72.4875,8.65,95,97,0.89,CL,1708156810
18,jand,33.4299,72.0193,23.79,17,11,0.47,PK,1708156811
19,vilyuchinsk,52.9306,158.4028,-8.85,82,13,5.85,RU,1708156513
20,barcelos,41.5388,-8.6151,12.18,88,100,2.11,PT,1708156436
21,l'isle-jourdain,43.6144,1.0817,8.96,87,56,2.3,FR,1708156813
22,amursk,50.2261,136.8994,-10.27,95,100,2.38,RU,1708156814
23,grytviken,-54.2811,-36.5092,2.86,91,45,4.0,GS,1708156815
24,haapsalu,58.9431,23.5414,1.66,90,100,8.14,EE,1708156816
25,ust-nera,64.5667,143.2,-41.72,99,44,0.5,RU,1708156817
26,quibala,-10.7337,14.98,22.14,86,100,0.99,AO,1708156673
27,waitangi,-43.9535,-176.5597,14.34,85,100,1.12,NZ,1708156819
28,dul'durga,50.6761,113.5931,-15.56,64,100,6.1,RU,1708156820
29,pushkar,26.5,74.55,26.92,13,0,2.54,IN,1708156821
30,barclayville,4.6797,-8.2339,27.16,85,92,1.8,LR,1708156822
31,lihue,21.9789,-159.3672,20.58,66,75,5.14,US,1708155980
32,ugoofaaru,5.6667,73.0,28.26,76,96,4.21,MV,1708156823
33,college,64.8569,-147.8028,-12.82,75,0,0.0,US,1708156218
34,san pedro,14.35,121.0167,30.75,68,75,5.14,PH,1708156825
35,ferkessedougou,9.6,-5.2,25.13,14,85,2.59,CI,1708156826
36,blackmans bay,-43.0167,147.3167,21.07,71,16,0.89,AU,1708156832
37,edinburgh of the seven seas,-37.0676,-12.3116,18.01,80,86,8.73,SH,1708156833
38,sitka,57.0531,-135.33,10.94,28,40,5.14,US,1708155978
39,vorgashor,67.5833,63.95,-24.58,93,51,3.3,RU,1708156281
40,hawaiian paradise park,19.5933,-154.9731,18.91,98,100,3.6,US,1708156835
41,sisimiut,66.9395,-53.6735,-10.53,81,100,3.86,GL,1708156835
42,glen innes,-29.7333,151.7333,18.81,86,41,3.73,AU,1708156836
43,bechar,31.6167,-2.2167,11.18,37,0,2.57,DZ,1708156837
44,ushuaia,-54.8,-68.3,9.81,93,100,5.66,AR,1708156838
45,adamstown,-25.066,-130.1015,24.69,78,100,3.53,PN,1708156839
46,taro,-8.3862,115.28,28.0,79,97,1.4,ID,1708156337
47,papatowai,-46.5619,169.4708,13.88,84,79,1.29,NZ,1708156840
48,bethel,41.3712,-73.414,-1.56,84,100,0.0,US,1708156614
49,alofi,-19.0595,-169.9187,26.94,78,83,5.14,NU,1708156484
50,mount gambier,-37.8333,140.7667,19.68,64,100,4.47,AU,1708156844
51,fauske,67.2588,15.3918,-0.98,81,100,2.55,NO,1708156845
52,lompoc,34.6391,-120.4579,10.43,96,40,2.57,US,1708156284
53,lae,-6.7221,146.9847,33.37,79,97,2.42,PG,1708156846
54,utrik,11.2278,169.8474,26.17,83,100,10.68,MH,1708156847
55,klaksvik,62.2266,-6.589,4.51,75,100,9.45,FO,1708156308
56,stanley,54.868,-1.6985,6.77,97,75,2.06,GB,1708156848
57,bredasdorp,-34.5322,20.0403,19.8,47,93,2.9,ZA,1708156849
58,coquimbo,-29.9533,-71.3436,17.85,94,100,3.6,CL,1708156544
59,alesund,62.4723,6.1549,2.27,66,75,2.06,NO,1708156850
60,prieska,-29.6641,22.7474,21.51,22,1,3.05,ZA,1708156651
61,mokhsogollokh,61.4681,128.9203,-29.32,89,100,2.73,RU,1708156851
62,pandan,14.0453,124.1694,26.96,69,5,5.42,PH,1708156851
63,kodiak,57.79,-152.4072,3.4,92,100,9.71,US,1708156852
64,isafjordur,66.0755,-23.124,-1.92,82,100,3.74,IS,1708156852
65,klyuchi,52.2667,79.1667,-18.77,87,100,6.64,RU,1708156359
66,megion,61.0296,76.1136,-19.99,86,8,3.86,RU,1708156854
67,petropavlovsk-kamchatsky,53.0452,158.6483,-9.67,24,0,6.0,RU,1708156854
68,margaret river,-33.95,115.0667,26.21,51,22,6.61,AU,1708156855
69,codrington,-38.2667,141.9667,18.88,71,100,5.22,AU,1708156371
70,st. john's,47.5649,-52.7093,-2.9,93,100,5.14,CA,1708156299
71,novodvinsk,64.4165,40.8122,-11.23,89,100,7.11,RU,1708156857
72,palmer,42.1584,-72.3287,-1.16,61,75,1.54,US,1708156280
73,djibo,14.1022,-1.6306,23.44,12,2,3.75,BF,1708156859
74,hithadhoo,-0.6,73.0833,27.69,80,100,5.42,MV,1708156859
75,qarazhal,48.0078,70.7903,-19.2,81,6,3.38,KZ,1708156450
76,port alfred,-33.5906,26.891,22.32,61,1,4.02,ZA,1708156531
77,zhangatas,43.5667,69.75,-6.93,25,100,13.41,KZ,1708156861
78,thompson,55.7435,-97.8558,-18.91,84,40,0.0,CA,1708156861
79,tupiza,-21.45,-65.7167,15.25,80,100,1.21,BO,1708156401
80,invercargill,-46.4,168.35,17.23,82,99,1.34,NZ,1708156863
81,puerto leguizamo,-0.1934,-74.7819,22.2,100,100,0.53,CO,1708156863
82,port douglas,-16.4833,145.4667,28.02,84,85,4.06,AU,1708156864
83,tutoia,-2.7619,-42.2744,26.04,89,100,3.37,BR,1708156865
84,sao miguel do araguaia,-13.275,-50.1628,21.75,92,97,1.89,BR,1708156865
85,port elizabeth,-33.918,25.5701,24.5,51,20,10.29,ZA,1708156810
86,ranau,5.9538,116.6641,26.97,71,78,2.08,MY,1708156867
87,wailua homesteads,22.0669,-159.378,20.24,66,75,5.14,US,1708156289
88,rikaze,29.25,88.8833,8.12,7,13,4.19,CN,1708156612
89,aasiaat,68.7098,-52.8699,-16.22,90,100,1.71,GL,1708156868
90,cudillero,43.5622,-6.1459,10.37,80,0,2.57,ES,1708156869
91,maragogi,-9.0122,-35.2225,26.52,84,95,2.91,BR,1708156607
92,huittinen,61.1833,22.7,-1.41,94,100,6.21,FI,1708156871
93,port mathurin,-19.6833,63.4167,26.71,74,90,12.0,MU,1708156868
94,bintulu,3.1667,113.0333,31.23,70,40,3.13,MY,1708156872
95,martuk,50.7475,56.5056,-13.3,75,100,4.84,KZ,1708156873
96,santa clara de valladares,19.6382,-102.4904,13.08,91,100,2.52,MX,1708156873
97,sinabang,2.4803,96.3801,29.7,71,100,0.7,ID,1708156874
98,geraldton,-28.7667,114.6,31.23,42,8,10.29,AU,1708156512
99,ubinskoye,55.3068,79.6802,-17.92,85,100,4.03,RU,1708156875
100,badger,64.8,-147.5333,-12.86,81,0,0.0,US,1708156226
101,luau,-10.7073,22.2247,25.44,68,76,1.74,AO,1708156711
102,mount isa,-20.7333,139.5,26.87,83,100,5.14,AU,1708156877
103,bukama,-9.2,25.85,26.63,79,99,0.25,CD,1708156878
104,afaahiti,-17.75,-149.2833,26.93,76,100,8.01,PF,1708156879
105,al ghayzah,16.2079,52.176,26.4,61,63,4.13,YE,1708156454
106,jember,-8.166,113.7032,29.33,80,91,1.94,ID,1708156881
107,gelinkaya,37.417,41.293,7.94,71,83,1.85,TR,1708156881
108,awjilah,29.1081,21.2869,14.04,56,75,0.4,LY,1708156882
109,flying fish cove,-10.4217,105.6791,28.04,73,71,2.26,CX,1708156709
110,hamilton,39.1834,-84.5333,-3.46,86,89,3.13,US,1708156883
111,iskateley,67.6803,53.1512,-21.66,88,53,4.02,RU,1708156634
112,jayapura,-2.5333,140.7,30.66,74,44,2.51,ID,1708156884
113,al bayda',32.7627,21.7551,10.22,71,9,3.45,LY,1708156885
114,antsiranana,-12.2787,49.2917,26.42,94,75,4.12,MG,1708156885
115,port saint john's,-31.6229,29.5448,23.84,50,17,3.21,ZA,1708156477
116,vrangel',42.7297,133.0839,2.12,90,20,2.89,RU,1708156887
117,newman,37.3138,-121.0208,11.25,91,100,0.45,US,1708156507
118,anadyr,64.75,177.4833,-23.72,77,20,4.0,RU,1708156888
119,corner brook,48.9667,-57.9484,-4.91,96,100,4.1,CA,1708156888
120,juneau,58.3019,-134.4197,-4.0,86,20,0.0,US,1708156318
121,ribeira grande,38.5167,-28.7,17.22,88,40,4.12,PT,1708156889
122,onguday,50.75,86.15,-18.92,82,100,0.91,RU,1708156891
123,trongsa,27.5026,90.5072,14.66,46,7,4.14,BT,1708156891
124,bardai,11.65,7.2333,21.35,20,75,7.15,NG,1708156892
125,rio gallegos,-51.6226,-69.2181,11.03,93,40,5.14,AR,1708156892
126,rabigh,22.7986,39.0349,22.36,32,0,3.12,SA,1708156893
127,sur,22.5667,59.5289,26.87,39,17,2.44,OM,1708156504
128,t'ongch'on-up,38.9539,127.8917,6.69,61,9,3.62,KP,1708156894
129,laojunmiao,39.8333,97.7333,-8.71,54,100,5.58,CN,1708156895
130,merizo village,13.2658,144.6691,29.21,86,10,5.23,GU,1708156895
131,siverskiy,59.3544,30.0783,0.98,97,100,7.12,RU,1708156897
132,narwana,29.6167,76.1167,27.99,8,69,4.05,IN,1708156897
133,tiksi,71.6872,128.8694,-36.51,100,90,0.74,RU,1708156898
134,pimentel,-6.8367,-79.9342,25.16,78,100,3.6,PE,1708156898
135,jamjamal,35.5365,44.8317,9.19,90,100,3.49,IQ,1708156899
136,bel ombre,-4.6167,55.4167,29.91,79,40,6.69,SC,1708156900
137,riberalta,-10.9833,-66.1,23.74,95,86,1.02,BO,1708156900
138,chervonohrad,50.391,24.2351,5.5,65,44,3.86,UA,1708156901
139,acapulco de juarez,16.8634,-99.8901,25.6,79,99,3.19,MX,1708156604
140,bilibino,68.0546,166.4372,-25.22,88,100,1.93,RU,1708156902
141,port lincoln,-34.7333,135.8667,23.41,49,41,5.43,AU,1708156427
142,rosarito,32.3333,-117.0333,12.92,91,15,2.06,MX,1708156805
143,bac lieu,9.285,105.7244,29.75,55,100,7.5,VN,1708156386
144,bereznik,62.8551,42.7072,-12.78,90,100,6.48,RU,1708156905
145,turkestan,43.3333,68.25,-1.78,15,100,10.99,KZ,1708156906
146,christiana,-27.914,25.1611,24.3,15,4,1.15,ZA,1708156907
147,nova sintra,14.8667,-24.7167,20.7,80,88,9.92,CV,1708156907
148,ad dilam,23.9915,47.1627,22.23,29,0,5.53,SA,1708156894
149,okhotsk,59.3833,143.3,-29.38,89,33,1.84,RU,1708156909
150,kununurra,-15.7667,128.7333,37.99,39,78,3.6,AU,1708156457
151,pingdu,36.7844,119.9464,9.15,64,31,7.47,CN,1708156910
152,kamensk-ural'skiy,56.4185,61.9329,-12.37,74,95,3.05,RU,1708156911
153,general acha,-37.377,-64.6043,18.38,65,0,5.97,AR,1708156911
154,tolanaro,-25.0319,46.9987,24.04,100,75,3.09,MG,1708156324
155,bikenibeu village,1.3673,173.1241,27.98,89,75,4.12,KI,1708156913
156,uturoa,-16.7333,-151.4333,28.11,82,61,7.61,PF,1708156469
157,avarua,-21.2078,-159.775,24.03,88,40,1.03,CK,1708156914
158,ulsteinvik,62.3432,5.8487,2.26,76,23,2.68,NO,1708156455
159,rudnichnyy,59.617,52.4703,-14.88,92,86,3.06,RU,1708156443
160,castillos,-34.1667,-53.8333,18.83,93,42,1.24,UY,1708156384
161,guozhen,34.3659,107.359,17.03,39,2,2.79,CN,1708156916
162,fada,9.5667,8.3,27.65,15,95,1.61,NG,1708156917
163,sumqayit,40.5897,49.6686,3.04,72,98,8.61,AZ,1708156917
164,akjoujt,19.6969,-14.4164,24.97,14,0,3.94,MR,1708156727
165,lewiston orchards,46.3804,-116.9754,-0.63,82,0,2.06,US,1708156529
166,port-cartier,50.0334,-66.8654,-12.18,78,100,3.92,CA,1708156919
167,birao,10.2849,22.7882,27.02,15,100,6.24,CF,1708156920
168,tura,25.5198,90.2201,26.57,21,0,3.03,IN,1708156920
169,antofagasta,-23.65,-70.4,19.6,84,100,2.32,CL,1708156666
170,hadibu,12.65,54.0333,27.18,55,8,4.1,YE,1708156585
171,udachny,66.4167,112.4,-36.42,66,47,2.89,RU,1708156922
172,jamestown,42.097,-79.2353,-4.23,93,100,2.24,US,1708156728
173,ilulissat,69.2167,-51.1,-15.99,85,75,1.54,GL,1708156924
174,elesbao veloso,-6.2019,-42.1403,21.91,97,96,0.68,BR,1708156924
175,bodaybo,57.8506,114.1933,-20.46,83,100,3.81,RU,1708156925
176,big bear city,34.2611,-116.845,3.73,74,0,0.0,US,1708156926
177,san matias,-16.3667,-58.4,25.44,69,89,0.76,BO,1708156927
178,upington,-28.4478,21.2561,24.21,20,0,1.03,ZA,1708156927
179,kone,-21.0595,164.8658,25.95,74,39,2.62,NC,1708156928
180,saipan,15.1355,145.701,26.61,84,22,7.24,MP,1708156929
181,freeport,40.6576,-73.5832,0.14,87,100,2.57,US,1708156930
182,sirjan,29.452,55.6814,18.7,40,77,8.5,IR,1708156930
183,abqaiq,25.9371,49.6776,25.13,48,0,8.44,SA,1708156931
184,fort bragg,35.139,-79.006,13.08,72,40,4.63,US,1708156932
185,kargasok,59.0556,80.8572,-21.69,90,100,4.02,RU,1708156932
186,sadova,43.9,23.95,4.69,75,0,2.5,RO,1708156933
187,vengerovo,55.6848,76.7471,-18.35,89,100,4.53,RU,1708156934
188,ahvaz,31.3203,48.6693,16.97,82,20,4.12,IR,1708156934
189,qaqortoq,60.7167,-46.0333,-1.2,68,100,4.62,GL,1708156935
190,itaituba,-4.2761,-55.9836,22.93,99,49,0.72,BR,1708156628
191,dudinka,69.4058,86.1778,-37.4,98,73,1.79,RU,1708156936
192,raymondville,26.4815,-97.7831,18.46,96,100,2.64,US,1708156806
193,mouila,-1.8685,11.0559,24.75,95,100,1.06,GA,1708156938
194,yefremov,53.1481,38.0992,-9.17,85,67,3.57,RU,1708156939
195,fale old settlement,-9.3852,-171.2468,28.84,79,99,6.61,TK,1708156939
196,loango,-4.6719,11.8312,25.81,94,75,1.03,CG,1708156941
197,queimadas,-10.9783,-39.6264,22.73,87,30,1.51,BR,1708156942
198,requena,39.4883,-1.1004,4.94,63,35,2.54,ES,1708156943
199,sarina,-21.4333,149.2167,26.82,1,95,6.18,AU,1708156943
200,tazacorte,28.629,-17.9293,17.54,63,20,6.17,ES,1708156686
201,georgetown,5.4112,100.3354,32.97,55,20,4.12,MY,1708156944
202,mejit,10.2753,170.8646,26.36,83,78,11.08,MH,1708156704
203,holice,50.066,15.9859,7.93,100,100,1.54,CZ,1708156946
204,macau,22.2006,113.5461,21.89,83,40,4.63,MO,1708156946
205,potosi,-19.5836,-65.7531,7.43,86,100,0.69,BO,1708156701
206,sibolga,1.7427,98.7792,29.49,76,100,1.38,ID,1708156948
207,huambo,-12.7761,15.7392,18.89,88,0,0.0,AO,1708156949
208,punta arenas,-53.15,-70.9167,10.06,93,100,0.51,CL,1708156822
209,thunder bay,48.4001,-89.3168,-17.01,66,75,3.09,CA,1708156764
210,naze,28.3667,129.4833,17.51,64,85,2.15,JP,1708156951
211,constantia,44.1833,28.65,2.61,74,96,4.49,RO,1708156839
212,susuman,62.7833,148.1667,-40.38,99,43,0.63,RU,1708156368
213,howrah,22.5892,88.3103,27.0,54,0,2.57,IN,1708156688
214,chibougamau,49.9168,-74.3659,-18.21,78,100,2.57,CA,1708156535
215,i-n-salah,27.1935,2.4607,20.07,32,88,6.12,DZ,1708156566
216,katabu,-4.9333,122.5167,28.79,80,98,0.86,ID,1708156955
217,polyarnyy,69.1989,33.4478,-4.66,89,100,2.47,RU,1708156377
218,tazovsky,67.4667,78.7,-26.71,98,96,2.59,RU,1708156956
219,astrakhan,46.3497,48.0408,-4.07,58,100,11.0,RU,1708156957
220,sherwood park,53.5168,-113.3187,-1.27,56,11,3.09,CA,1708156710
221,benguela,-12.5763,13.4055,28.42,74,100,0.4,AO,1708156833
222,victoria falls,-17.9235,25.843,32.06,33,0,5.66,ZW,1708156733
223,santa marinella,42.0345,11.8536,15.86,56,79,0.86,IT,1708156959
224,enewetak,11.3474,162.3373,26.45,83,12,10.39,MH,1708156503
225,baran,25.1,76.5167,28.31,17,0,2.47,IN,1708156961
226,isangel,-19.55,169.2667,26.3,85,80,7.79,VU,1708156961
227,ulaangom,49.9811,92.0667,-19.63,72,100,1.13,MN,1708156610
228,kayangel,8.0823,134.7173,27.39,83,11,7.59,PW,1708156488
229,minas de marcona,-15.2119,-75.1103,18.21,89,100,5.37,PE,1708156963
230,malanje,-9.5402,16.341,20.79,92,100,2.04,AO,1708156963
231,aldinga beach,-35.2793,138.4604,31.26,42,91,6.6,AU,1708156964
232,zhuanghe,39.7008,122.9911,4.45,80,100,5.19,CN,1708156965
233,anadarko,35.0726,-98.2437,0.0,69,6,7.05,US,1708156966
234,anqing,30.5092,117.0506,18.74,65,73,4.02,CN,1708156966
235,nemuro,43.3236,145.575,-4.09,78,100,1.91,JP,1708156967
236,guerrero negro,27.9769,-114.0611,15.1,80,6,6.06,MX,1708156691
237,south hedland,-20.4089,118.5983,35.96,52,0,10.29,AU,1708156473
238,saint-joseph,-21.3667,55.6167,29.21,82,89,6.1,RE,1708156969
239,kirgiz-miyaki,53.6324,54.7979,-12.02,74,100,4.14,RU,1708156969
240,mount pearl,47.5166,-52.7813,-3.36,94,100,5.14,CA,1708156767
241,barah,13.7,30.3667,23.22,16,53,7.86,SD,1708156970
242,tchintabaraden,15.8969,5.7985,20.95,17,3,6.5,NE,1708156971
243,praia da vitoria,38.7333,-27.0667,17.14,94,20,3.2,PT,1708156971
244,gadzhiyevo,69.2551,33.3362,-4.79,92,100,2.66,RU,1708156586
245,brookings,44.3114,-96.7984,-13.79,72,0,5.66,US,1708156387
246,suva,-18.1416,178.4415,27.71,74,75,2.57,FJ,1708156973
247,timmins,48.4669,-81.3331,-22.1,77,75,3.09,CA,1708156936
248,santa marta,11.2408,-74.199,28.27,74,72,7.15,CO,1708156974
249,mata-utu,-13.2816,-176.1745,28.89,82,93,7.76,WF,1708156975
250,douentza,14.9951,-2.9517,25.33,11,0,1.47,ML,1708156975
251,seymour,38.9592,-85.8903,-4.6,96,14,2.59,US,1708156908
252,labrador city,52.9463,-66.9114,-28.79,73,0,2.06,CA,1708156809
253,peace river,56.2501,-117.286,-6.3,76,0,2.06,CA,1708156933
254,alice springs,-23.7,133.8833,37.75,24,70,9.26,AU,1708156681
255,azogues,-2.7333,-78.8333,12.9,99,100,1.38,EC,1708156978
256,cozumel,20.5083,-86.9458,22.19,93,0,3.36,MX,1708156770
257,fortuna,40.5982,-124.1573,15.19,62,100,10.29,US,1708156596
258,diego de almagro,-26.3667,-70.05,17.63,68,55,0.46,CL,1708156889
259,kirovo-chepetsk,58.5539,50.0399,-15.06,89,96,3.61,RU,1708156980
260,mocimboa,-11.3167,40.35,31.26,66,70,4.63,MZ,1708156981
261,ketchikan,55.3422,-131.6461,3.36,70,90,2.01,US,1708156981
262,vallenar,-28.5708,-70.7581,20.05,76,47,1.07,CL,1708156982
263,diawara,15.022,-12.5437,25.68,15,55,4.29,SN,1708156982
264,tocache,-8.1842,-76.5125,21.24,97,60,0.24,PE,1708156983
265,ouargaye,11.5033,0.0572,25.51,11,6,5.94,BF,1708156984
266,marijampole,54.5667,23.35,3.94,96,100,4.87,LT,1708156985
267,kaliganj,23.4095,89.1402,29.2,22,0,3.16,BD,1708156985
268,moree,-29.4667,149.85,31.46,33,1,1.05,AU,1708156986
269,tamiahua,21.2667,-97.45,21.37,93,100,2.68,MX,1708156987
270,new norfolk,-42.7826,147.0587,21.72,48,4,1.08,AU,1708156987
271,urucui,-7.2294,-44.5561,23.63,95,100,0.85,BR,1708156988
272,nar'yan-mar,67.6713,53.087,-21.61,88,58,4.02,RU,1708156602
273,severo-yeniseyskiy,60.3725,93.0408,-23.92,86,100,0.42,RU,1708156989
274,newport,51.5877,-2.9984,12.06,96,100,2.7,GB,1708156747
275,saint augustine beach,29.8505,-81.2654,15.59,88,100,1.54,US,1708156991
276,zhezqazghan,47.7833,67.7667,-23.68,77,0,6.0,KZ,1708156608
277,kapuskasing,49.4169,-82.4331,-25.95,76,0,2.06,CA,1708156539
278,colonia,50.9333,6.95,10.54,85,75,2.57,DE,1708156663
279,olonkinbyen,70.9221,-8.7187,-8.28,58,6,1.33,SJ,1708156993
280,nesebar,42.7833,27.7333,4.49,71,99,3.03,BG,1708156994
281,hermanus,-34.4187,19.2345,21.0,54,72,1.83,ZA,1708156995
282,mana,5.6592,-53.7767,25.35,85,73,4.7,GF,1708156995
283,faya-largeau,17.9257,19.1043,15.94,20,0,8.23,TD,1708156996
284,susangerd,31.5608,48.1831,19.95,42,24,5.53,IR,1708156997
285,iwanai,42.9744,140.5089,-0.49,81,100,1.98,JP,1708156997
286,tamanrasset,22.785,5.5228,12.95,15,0,1.03,DZ,1708156998
287,la passe,45.5549,-0.8967,6.13,78,5,0.56,FR,1708156998
288,zheleznodorozhnyy,55.7503,38.0042,-3.69,96,100,4.02,RU,1708156999
289,mwene-ditu,-7.0,23.45,24.78,82,94,0.37,CD,1708157000
290,namibe,-15.1961,12.1522,25.53,81,100,2.53,AO,1708157002
291,lucea,18.451,-78.1736,23.92,83,2,1.95,JM,1708157002
292,kataba,13.9833,44.3833,22.99,37,79,2.19,YE,1708157003
293,punto fijo,11.6956,-70.1996,25.52,85,40,12.98,VE,1708157004
294,guatrache,-37.6678,-63.5302,18.77,64,0,5.53,AR,1708157005
295,ancud,-41.8697,-73.8203,10.77,86,10,1.59,CL,1708156636
296,longyearbyen,78.2186,15.6401,-10.09,67,75,9.77,SJ,1708157006
297,saminaka,10.414,8.6828,23.78,19,95,3.06,NG,1708157006
298,nuku'alofa,-21.1333,-175.2,25.19,88,75,4.63,TO,1708156847
299,mantua,45.1667,10.7833,7.58,73,81,0.3,IT,1708157007
300,agrestina,-8.4581,-35.9447,23.31,86,100,0.21,BR,1708157008
301,kodinsk,58.6881,99.1844,-23.24,85,100,1.8,RU,1708157009
302,tateyama,34.9833,139.8667,12.28,67,100,5.57,JP,1708157009
303,san jeronimo,-11.9472,-75.2829,9.75,87,100,1.31,PE,1708157010
304,calama,-22.4667,-68.9333,14.27,38,0,7.2,CL,1708156835
305,papao,-17.75,-149.55,27.82,76,100,8.77,PF,1708157011
306,kalifornsky,60.4183,-151.29,-2.56,85,68,3.44,US,1708157012
307,vikulovo,56.8167,70.6107,-16.72,87,58,3.9,RU,1708157012
308,sydney,-33.8679,151.2073,27.98,73,75,5.14,AU,1708156373
309,saudarkrokur,65.7461,-19.6394,-3.41,75,100,3.31,IS,1708156533
310,al kharj,24.155,47.3346,22.32,29,0,5.73,SA,1708157014
311,arraial do cabo,-22.9661,-42.0278,23.99,86,4,7.49,BR,1708156505
312,rabo de peixe,37.8,-25.5833,17.77,99,75,7.2,PT,1708156419
313,bishkul,54.7803,69.1033,-21.81,71,68,3.0,KZ,1708157016
314,east london,-33.0153,27.9116,23.52,43,0,6.69,ZA,1708156814
315,ekuvukeni,-28.4675,30.1551,25.18,61,89,0.81,ZA,1708157017
316,kimbe,-5.5502,150.1429,27.88,85,100,0.77,PG,1708157017
317,mermoz boabab,14.7065,-17.4758,22.88,88,0,3.09,SN,1708157019
318,san antonio oeste,-40.7319,-64.9477,26.41,40,48,10.32,AR,1708156833
319,zhosaly,45.4878,64.0781,-7.91,23,82,12.55,KZ,1708157020
320,tucurui,-3.7661,-49.6725,23.63,99,100,0.89,BR,1708157020
321,sao jose da coroa grande,-8.8978,-35.1478,26.68,84,92,2.83,BR,1708157021
322,surab,28.4914,66.2585,17.75,22,87,2.17,PK,1708157022
323,brady,31.1352,-99.3351,5.76,65,0,7.2,US,1708157023
324,pisco,-13.7,-76.2167,24.03,78,20,1.54,PE,1708156490
325,sena madureira,-9.0656,-68.6569,23.17,97,100,0.66,BR,1708157024
326,kavaratti,10.5669,72.642,28.18,70,100,2.41,IN,1708157025
327,hakha,22.65,93.6167,22.01,16,0,0.88,MM,1708157025
328,korgun,40.7348,33.5184,5.24,73,99,2.38,TR,1708157026
329,kokopo,-4.352,152.2633,27.3,81,98,0.25,PG,1708157027
330,crane,31.3974,-102.3501,4.36,58,42,7.81,US,1708156584
331,nichinan,31.6,131.3667,14.82,67,1,2.04,JP,1708157028
332,laguna,38.421,-121.4238,12.27,87,0,0.0,US,1708156914
333,touros,-5.1989,-35.4608,25.85,88,34,2.25,BR,1708156453
334,petrolina,-9.3986,-40.5008,24.03,100,75,1.54,BR,1708156910
335,cidreira,-30.1811,-50.2056,22.7,87,95,4.7,BR,1708157030
336,west island,-12.1568,96.8225,29.99,74,75,3.6,CC,1708157030
337,mizhou,35.9947,119.3975,10.33,63,0,6.42,CN,1708157031
338,hasaki,35.7333,140.8333,12.38,66,100,5.37,JP,1708157032
339,cuamba,-14.8031,36.5372,29.54,66,99,0.91,MZ,1708157032
340,muroto-misakicho,33.2833,134.15,11.98,56,0,0.89,JP,1708157033
341,malango,-2.9627,119.9001,22.6,97,100,0.29,ID,1708156742
342,villa dolores,-31.9459,-65.1896,21.51,61,0,0.71,AR,1708157034
343,sandnessjoen,66.0217,12.6316,-1.71,62,100,9.97,NO,1708157034
344,kerikeri,-35.2268,173.9474,22.17,77,100,0.65,NZ,1708156949
345,lib,8.3122,167.3766,27.22,81,90,9.41,MH,1708157035
346,santa terezinha,-29.9002,-50.0904,21.84,89,96,3.7,BR,1708157036
347,hillsdale,41.0026,-74.0404,-0.1,90,100,2.06,US,1708157037
348,smolensk,55.0,33.0,1.05,96,97,5.72,RU,1708157038
349,egilsstadir,65.2653,-14.3948,-13.05,92,100,2.06,IS,1708157038
350,alvaraes,-3.2208,-64.8042,23.09,97,87,1.21,BR,1708157039
351,tobelo,1.7284,128.0095,28.47,71,15,4.07,ID,1708156604
352,dryden,49.7833,-92.7503,-18.84,84,75,4.12,CA,1708156581
353,san patricio,28.017,-97.5169,17.13,81,100,8.13,US,1708156479
354,kasaragod,12.5,75.0,31.59,47,59,5.55,IN,1708157041
355,lorengau,-2.0226,147.2712,28.6,79,32,1.27,PG,1708156522
356,meru,0.0463,37.6559,25.35,50,89,2.83,KE,1708156767
357,broken hill,-31.95,141.4333,35.38,20,21,5.4,AU,1708156448
358,safonovo,55.15,33.2167,0.62,96,99,6.08,RU,1708157044
359,mayna,54.1135,47.6231,-15.45,83,100,4.44,RU,1708157045
360,portland,45.5234,-122.6762,6.38,62,75,9.77,US,1708156746
361,ratnagiri,16.9833,73.3,31.02,35,3,5.5,IN,1708157046
362,boende,-0.2167,20.8667,28.11,69,92,1.08,CD,1708157047
363,kalmunai,7.4167,81.8167,28.49,71,97,5.84,LK,1708156674
364,faaa,-17.55,-149.6,27.98,74,75,6.17,PF,1708157048
365,plouzane,48.3833,-4.6167,11.1,93,100,6.69,FR,1708157048
366,morehead city,34.7229,-76.726,14.45,84,0,6.69,US,1708157049
367,porbandar,21.6422,69.6093,33.99,18,8,5.14,IN,1708157049
368,zouerate,22.7187,-12.4521,19.16,43,0,3.91,MR,1708157050
369,kandahar,31.0,65.75,20.9,23,3,4.93,AF,1708157051
370,richards bay,-28.783,32.0377,24.29,85,100,4.48,ZA,1708156712
371,kuloy,61.0305,42.4925,-12.17,91,100,6.1,RU,1708157052
372,marquette,46.5333,-87.6335,-11.85,83,63,3.12,US,1708157052
373,as sulayyil,20.4607,45.5779,30.14,21,41,5.68,SA,1708157053
374,tofol,5.3248,163.0078,28.17,75,9,7.8,FM,1708156676
375,neelankarai,12.9455,80.2575,32.03,51,20,5.14,IN,1708157054
376,nazarovo,56.0064,90.3914,-24.65,88,100,5.15,RU,1708157055
377,regina,50.4501,-104.6178,-11.01,67,20,8.75,CA,1708156717
378,taoudenni,22.6783,-3.9836,22.87,11,0,2.34,ML,1708156542
379,huangshan,29.7114,118.3125,19.0,69,59,1.66,CN,1708157057
380,barcelona,41.3888,2.159,14.19,76,0,5.66,ES,1708156876
381,cockburn town,21.4612,-71.1419,25.02,77,47,6.36,TC,1708156965
382,santa ana,33.7456,-117.8678,13.92,89,0,0.0,US,1708156818
383,boma,7.0805,-2.1697,25.87,76,71,1.17,GH,1708157059
384,ranot,7.7777,100.3213,28.64,66,100,7.09,TH,1708157059
385,waddan,29.1614,16.139,15.3,34,78,4.65,LY,1708157060
386,vilyuysk,63.7553,121.6247,-32.78,92,95,3.13,RU,1708157060
387,kralendijk,12.15,-68.2667,26.33,85,10,11.82,BQ,1708157061
388,puerto aysen,-45.4,-72.7,10.0,98,88,2.45,CL,1708157062
389,tengrela,10.4869,-6.4097,24.46,15,10,1.73,CI,1708157062
390,rongelap,11.1635,166.8941,26.24,83,74,10.87,MH,1708157063
391,port macquarie,-31.4333,152.9167,26.05,72,6,4.63,AU,1708156643
392,sawakin,19.1059,37.3321,23.64,48,0,6.67,SD,1708157064
393,thinadhoo,0.5333,72.9333,26.47,85,100,3.02,MV,1708156455
394,swift current,50.2834,-107.8014,-8.55,48,0,10.8,CA,1708156887
395,sydney mines,46.2367,-60.2177,-2.0,81,75,5.14,CA,1708157066
396,washington court house,39.5364,-83.4391,-2.8,86,100,6.69,US,1708157067
397,malmberget,67.1753,20.6549,-6.69,93,20,4.12,SE,1708157067
398,carandai,-20.9536,-43.8064,15.23,92,0,0.54,BR,1708157068
399,kupang,-10.1667,123.5833,31.32,84,40,5.14,ID,1708157069
400,zagora,30.3484,-5.8365,14.98,38,1,2.26,MA,1708157069
401,akrehamn,59.2667,5.1833,4.14,75,0,6.69,NO,1708157070
402,manokwari,-0.8667,134.0833,28.22,79,99,6.75,ID,1708157070
403,samfya,-11.3649,29.5565,24.63,70,99,2.48,ZM,1708157071
404,san jose de jachal,-30.2406,-68.7469,25.06,49,5,0.17,AR,1708157071
405,fisterra,42.9049,-9.2629,10.01,84,93,4.34,ES,1708156521
406,shakawe,-18.3667,21.85,27.3,51,60,5.29,BW,1708157073
407,vila velha,-20.3297,-40.2925,23.97,94,75,1.34,BR,1708156945
408,humaita,-7.5061,-63.0208,24.24,98,100,0.83,BR,1708157074
409,san luis de la loma,17.2706,-100.8939,24.25,83,100,2.93,MX,1708157074
410,margate,51.3813,1.3862,9.83,79,15,1.34,GB,1708157075
411,jaleshwar,26.6471,85.8008,26.88,20,0,5.0,NP,1708157076
412,whakatane,-37.9585,176.9854,20.43,89,100,1.75,NZ,1708157076
413,ubari,26.5921,12.7805,15.84,26,100,7.41,LY,1708157077
414,maceio,-9.6658,-35.7353,24.69,100,20,1.03,BR,1708156828
415,tevriz,57.509,72.4042,-16.19,85,74,3.69,RU,1708157078
416,nica,43.7031,7.2661,15.81,64,0,4.63,FR,1708157078
417,shuangjiang,26.1547,109.7138,14.37,90,100,3.39,CN,1708157079
418,lagoa,39.05,-27.9833,16.44,85,100,8.82,PT,1708157080
419,isiro,2.7739,27.616,21.94,89,100,0.08,CD,1708157080
420,suphan buri,14.4742,100.1222,35.65,34,100,4.36,TH,1708157081
421,boa vista,2.8197,-60.6733,25.99,65,0,4.12,BR,1708156883
422,oltu,40.5498,42.0013,5.25,74,96,1.25,TR,1708157082
423,sierra grande,-41.606,-65.3557,24.24,26,33,10.26,AR,1708157082
424,keflavik,64.0049,-22.5624,4.95,81,75,9.26,IS,1708157083
425,mantenopolis,-18.8625,-41.1228,21.09,96,98,1.04,BR,1708157084
426,thayetmyo,19.3167,95.1833,36.0,11,6,6.19,MM,1708157084
427,bingol,38.8847,40.4939,6.29,81,75,1.03,TR,1708157085
428,ar ruseris,11.8659,34.3869,29.18,13,6,5.09,SD,1708157085
429,yarmouth,41.7057,-70.2286,1.09,62,100,2.68,US,1708156501
430,zaio,34.9428,-2.7329,13.99,78,0,1.73,MA,1708157086
431,luderitz,-26.6481,15.1594,20.8,55,0,5.74,NA,1708157087
432,sona,45.4388,10.8255,13.86,93,100,1.54,IT,1708157087
433,eastham,41.8301,-69.9739,1.08,61,100,0.89,US,1708157088
434,las tablas,7.7667,-80.2833,26.21,99,93,4.33,PA,1708157089
435,nova vicosa,-17.8919,-39.3719,22.99,92,100,4.05,BR,1708156964
436,willich,51.2667,6.55,10.64,91,0,2.57,DE,1708157090
437,ust'-kulom,61.6864,53.6902,-16.0,93,85,3.09,RU,1708157091
438,enshi,30.3,109.4833,18.31,63,55,2.48,CN,1708157091
439,tegueste,28.5167,-16.3167,18.68,75,20,3.6,ES,1708157092
440,westport,41.1415,-73.3579,-0.66,84,100,1.54,US,1708157093
441,khandyga,62.6667,135.6,-33.97,92,31,1.92,RU,1708157093
442,howard springs,-12.497,131.047,32.77,80,6,4.39,AU,1708157094
443,machico,32.7,-16.7667,18.35,73,40,5.66,PT,1708157094
444,homer,59.6425,-151.5483,5.94,33,0,5.14,US,1708156708
445,wainwright,52.839,-110.8572,-8.17,72,6,5.2,CA,1708157095
446,coahuayana de hidalgo,18.7,-103.6583,20.1,88,100,0.19,MX,1708156648
447,siem reap,13.5,104.0,37.06,28,11,4.23,KH,1708157097
448,kirkland lake,48.1446,-80.0377,-17.84,78,100,2.57,CA,1708157097
449,singkil,-7.9855,111.4161,30.82,68,79,1.9,ID,1708157098
450,san julian,21.0167,-102.1667,8.84,85,100,3.51,MX,1708157098
451,anshun,26.25,105.9333,24.04,26,0,11.09,CN,1708157099
452,cooma,-36.2333,149.1333,22.69,66,47,3.48,AU,1708157099
453,reggane,26.7158,0.1714,20.69,22,0,5.0,DZ,1708157100
454,prince rupert,54.3161,-130.3201,11.05,24,100,7.2,CA,1708156882
455,landeck,47.1301,10.5636,8.33,99,100,1.01,AT,1708157101
456,lazaro cardenas,17.9583,-102.2,21.46,92,100,1.08,MX,1708157102
457,orerokpe,5.6351,5.8896,30.53,64,91,1.06,NG,1708157102
458,midvagur,62.0511,-7.1939,3.46,87,100,7.72,FO,1708156546
459,sumbe,-11.2061,13.8437,28.44,78,100,1.24,AO,1708157104
460,tudor vladimirescu,45.5667,27.65,5.65,64,10,2.12,RO,1708157104
461,mount airy,36.4993,-80.6073,8.89,66,100,3.13,US,1708157105
462,morciano di romagna,43.9141,12.6506,11.07,84,40,0.51,IT,1708157105
463,peniche,39.3558,-9.3811,13.09,95,100,2.34,PT,1708157107
464,toktogul,41.8708,72.9402,0.57,62,100,0.21,KG,1708157108
465,mizdah,31.4451,12.9801,15.3,26,100,1.88,LY,1708157109
466,wuzhou,23.4833,111.3167,24.89,59,100,2.98,CN,1708157110
467,agat village,13.3886,144.6585,28.52,79,20,5.66,GU,1708157110
468,puerto baquerizo moreno,-0.9,-89.6,26.43,85,52,4.09,EC,1708157111
469,mbandaka,0.0487,18.2603,28.83,62,100,2.43,CD,1708157111
470,carnarvon,-24.8667,113.6333,34.63,42,0,8.43,AU,1708156814
471,qusmuryn,52.4503,64.6311,-19.31,85,85,0.66,KZ,1708157113
472,cacheu,12.2706,-16.1658,21.05,82,84,1.13,GW,1708157113
473,meulaboh,4.1363,96.1285,29.95,67,100,2.88,ID,1708157114
474,nuuk,64.1835,-51.7216,-4.66,80,75,5.66,GL,1708157115
475,manacapuru,-3.2997,-60.6206,25.79,89,100,1.56,BR,1708156946
476,la ronge,55.1001,-105.2842,-3.86,54,75,4.12,CA,1708157117
477,menongue,-14.6585,17.691,24.09,59,92,1.84,AO,1708157117
478,ataq,14.5377,46.8319,28.21,17,59,2.36,YE,1708157118
479,keyser,39.4409,-78.9739,0.02,97,100,0.97,US,1708157119
480,pariaman,-0.619,100.12,33.03,71,94,2.57,ID,1708157120
481,labuan,5.2767,115.2417,31.2,62,20,3.09,MY,1708157121
482,panama city beach,30.1766,-85.8055,16.16,93,40,2.24,US,1708157121
483,fort st. john,56.2499,-120.8529,-2.06,37,0,5.66,CA,1708157122
484,bolkow,50.922,16.1011,9.7,82,100,3.82,PL,1708157122
485,mar del plata,-38.0023,-57.5575,21.16,93,0,3.6,AR,1708156445
486,gazojak,41.1875,61.4036,-0.62,30,100,12.17,TM,1708157124
487,tralee,52.2704,-9.7026,11.19,97,100,3.83,IE,1708157124
488,martapura,-3.4167,114.85,34.05,55,20,3.6,ID,1708157125
489,rio grande,-32.035,-52.0986,21.64,82,70,6.47,BR,1708156945
490,kudahuvadhoo,2.6708,72.8944,27.69,79,65,7.04,MV,1708157126
491,borovskoy,53.8,64.15,-18.01,80,73,1.74,KZ,1708157127
492,el bauga,18.262,33.9081,21.59,18,3,7.14,SD,1708157127
493,sabang,5.8933,95.3214,28.26,78,100,9.62,ID,1708157128
494,dakhla,23.6848,-15.958,17.01,82,0,11.83,EH,1708156541
495,savanna-la-mar,18.219,-78.1332,23.97,88,1,1.33,JM,1708156949
496,santarem,-2.4431,-54.7083,28.07,83,75,5.14,BR,1708157016
497,tambacounda,13.7539,-13.7586,24.03,33,0,3.09,SN,1708157130
498,kohlu,29.8962,69.252,20.6,14,0,3.23,PK,1708157131
499,karema,-6.8205,30.4389,23.93,82,92,1.61,TZ,1708156725
500,samitah,16.596,42.9444,29.43,55,69,2.23,SA,1708157132
501,tayshet,55.9342,98.0044,-22.2,83,100,4.79,RU,1708156914
502,xinyuan,37.3,99.0,4.06,15,2,11.61,CN,1708157133
503,monywa,22.1167,95.1333,31.27,23,0,0.68,MM,1708157134
504,san antonio de pale,-1.4014,5.6325,28.77,75,92,3.51,GQ,1708157134
505,bandarbeyla,9.4942,50.8122,27.33,59,90,5.35,SO,1708157135
506,hilo,19.7297,-155.09,19.03,98,100,6.17,US,1708157084
507,santa cruz,-17.8,-63.1667,24.7,94,96,3.6,BO,1708157136
508,remire-montjoly,4.9167,-52.2667,27.02,78,40,3.09,GF,1708157137
509,fort mcmurray,56.7268,-111.381,-2.23,43,0,4.12,CA,1708157138
510,aberdeen,57.1437,-2.0981,5.27,100,100,2.06,GB,1708156882
511,atar,20.5169,-13.0499,24.21,14,91,4.02,MR,1708157139
512,taltal,-25.4,-70.4833,19.28,87,14,0.92,CL,1708156600
513,talakan,50.3167,130.3667,-4.37,84,100,5.1,RU,1708157140
514,pacific grove,36.6177,-121.9166,12.03,83,0,0.45,US,1708157140
515,alo,7.4178,6.7371,29.59,37,100,1.33,NG,1708157141
516,chamical,-30.36,-66.314,22.12,53,0,2.68,AR,1708156714
517,akureyri,65.6835,-18.0878,-14.04,85,0,2.06,IS,1708156672
518,sarangani,5.4033,125.4636,27.57,77,10,10.41,PH,1708157143
519,yaren,-0.5472,166.916,28.88,79,83,5.87,NR,1708157143
520,umba,66.6871,34.3429,-8.08,94,100,7.78,RU,1708157144
521,willowmore,-33.2926,23.4895,16.31,41,0,4.2,ZA,1708157144
522,poronaysk,49.2167,143.1167,-16.1,96,100,1.29,RU,1708157145
523,saint-philippe,-21.3585,55.7679,29.77,84,98,6.21,RE,1708157145
524,huy-neinstedt,51.9667,10.9167,9.4,83,99,6.32,DE,1708157146
525,selfoss,63.9331,-20.9971,3.36,89,100,8.56,IS,1708157147
526,ostersund,63.1792,14.6357,-3.55,86,0,5.66,SE,1708157147
527,shawano,44.7822,-88.609,-12.01,56,0,3.09,US,1708157148
528,chambas,22.1928,-78.9136,20.82,97,27,1.45,CU,1708157148
529,ghadamis,30.1337,9.5007,17.83,20,100,4.03,LY,1708157156
530,bathsheba,13.2167,-59.5167,26.34,73,40,8.75,BB,1708157157
531,medicine hat,50.0501,-110.6683,-9.32,61,0,7.2,CA,1708157157
532,north bend,43.4065,-124.2243,10.95,87,100,2.06,US,1708156959
533,vadso,70.0744,29.7487,-2.91,93,75,3.6,NO,1708157158
534,marsh harbour,26.5412,-77.0636,22.41,81,100,6.43,BS,1708157119
535,conde,-7.2597,-34.9075,23.7,100,40,1.54,BR,1708157159
536,sao joao da barra,-21.6403,-41.0511,22.93,91,1,2.95,BR,1708157160
537,island harbour,50.724,-1.2758,11.75,95,100,2.68,GB,1708157161
538,velikiy ustyug,60.7644,46.3106,-14.78,91,99,4.47,RU,1708157161
539,plesetsk,62.708,40.2916,-10.73,93,100,6.99,RU,1708157162
540,lionel town,17.8101,-77.2406,24.94,85,19,3.31,JM,1708157162
541,sidrolandia,-20.9319,-54.9614,22.27,77,17,2.13,BR,1708157031
542,zeya,53.75,127.2667,-13.06,93,97,1.36,RU,1708156578
543,kurchatov,51.6601,35.6521,-0.33,68,21,3.15,RU,1708157164
544,kabare,-2.4683,28.8242,23.31,74,84,0.77,CD,1708157165
545,kamina,-8.7386,24.9906,25.89,68,98,0.57,CD,1708157165
546,kyaikkami,16.08,97.5675,29.28,57,100,4.39,MM,1708157166
547,beau vallon,-20.4189,57.6953,31.78,70,75,7.2,MU,1708157166
548,krumovgrad,41.4667,25.65,8.91,79,33,2.92,BG,1708157167
549,ola,59.5833,151.2833,-26.59,90,37,1.81,RU,1708157167
550,deqen,29.9618,90.7188,5.13,8,100,5.42,CN,1708157168
551,al mindak,20.1588,41.2834,23.78,55,0,3.77,SA,1708157170
552,ceeldheer,3.8488,47.1806,30.98,51,12,8.55,SO,1708157171
553,la isla,18.6,-96.15,21.39,93,23,1.13,MX,1708157172
554,kuraymah,18.55,31.85,20.83,24,7,7.62,SD,1708157173
555,villa gesell,-37.2639,-56.973,20.59,93,0,5.01,AR,1708157173
556,aral,40.5156,81.2636,6.6,14,100,10.12,CN,1708156580
557,kirakira,-10.4544,161.9205,28.23,86,99,3.76,SB,1708157174
558,uyuni,-20.4597,-66.825,9.76,78,100,2.3,BO,1708157175
559,grootfontein,-19.5667,18.1167,26.76,24,20,3.09,NA,1708157176
560,garden city,42.3256,-83.331,-2.99,72,75,3.09,US,1708156987
561,villa del totoral,-30.8167,-63.7167,17.73,65,0,1.03,AR,1708157178
562,dungarvan,52.0881,-7.6253,10.31,98,100,6.93,IE,1708157178
563,smithers,54.7804,-127.1743,-4.82,54,0,2.06,CA,1708157179
564,jurm,36.8648,70.8342,7.58,99,100,0.66,AF,1708157180
565,seminole,28.7086,-81.2081,18.48,84,75,1.54,US,1708157023
